[
  {
    "title": "Just a Friday House",
    "lat": 33.748997,
    "lng": -84.387985,
    "description": "<strong>Just House</strong> <br/> Jamming every Friday Night",
    "zip": "30034"
  },
  {
    "title": "Just a Saturday House",
    "lat": 33.748997,
    "lng": -84.287985,
    "description": "<strong>Just Home</strong> <br/> Jamming every Friday Night",
    "zip": "30305"
  },
  {
    "title": "Decatur Bang",
    "lat": 33.66761,
    "lng": -84.017693,
    "description": "<strong>Decatur Bang</strong> <br/> Bang Bang we takeover Decatur",
    "zip": "30307"
  },
  {
    "title": "Too Short Karoke",
    "lat": 33.8463,
    "lng": -84.3621,
    "description": "<strong>Strong Island</strong> <br/> Bang Bang we takeover Decatur",
    "zip": "30056"
  },
  {
    "title": "dsdhjd",
    "description": "jdshd j fdhsfjkds k",
    "zip": "63537",
    "lat": 33.749117,
    "lng": -84.276587
  },
  {
    "title": "basebakk",
    "description": "great times baby",
    "zip": "30005",
    "lat": 33.8368289,
    "lng": -84.38120140000001
  },
  {
    "title": "Keep Jumping",
    "description": "hdngsadjshjdhsjdkmhsjkdhjskdhjskadhsjkad",
    "zip": "30034",
    "lat": 33.825179,
    "lng": -84.3266764
  },
  {
    "title": "Keep Jumping",
    "description": "hdngsadjshjdhsjdkmhsjkdhjskdhjskadhsjkad",
    "zip": "30034",
    "lat": 33.825179,
    "lng": -84.3266764
  },
  {
    "title": "Shop Event",
    "description": "tommy boy ",
    "zip": "30022",
    "lat": 34.029613,
    "lng": -84.23841700000003
  },
  {
    "title": "Shop Event",
    "description": "tommy boy ",
    "zip": "30022",
    "lat": 34.029613,
    "lng": -84.23841700000003
  },
  {
    "title": "Keep Jumping",
    "description": "hdngsadjshjdhsjdkmhsjkdhjskdhjskadhsjkad",
    "zip": "30034",
    "lat": 33.836829,
    "lng": -84.40811099999996
  },
  {
    "title": "dude",
    "zip": "23123",
    "lat": "33.690693",
    "lng": "-84.34998999999999"
  },
  {
    "title": "eedude",
    "zip": "23123",
    "lat": "33.690693",
    "lng": "-84.34998999999999"
  },
  {
    "title": "Tom Joyner",
    "zip": "30034",
    "lat": "33.7474243",
    "lng": "-84.30979079999997"
  },
  {
    "title": "sdfsdfsdf",
    "zip": "4348 Lehigh Laural Ln"
  },
  {
    "title": "Baseball",
    "zip": "4348 Lehigh Laural Ln"
  },
  {
    "title": "Baseball",
    "zip": "4348 Lehigh Laural Ln"
  },
  {
    "title": "Baseball",
    "zip": "4348 Lehigh Laural Ln"
  },
  {
    "title": "Baseball",
    "zip": "4348 Lehigh Laural Ln"
  },
  {
    "title": "Baseball",
    "zip": "4348 Lehigh Laural Ln"
  },
  {
    "title": "Baseball",
    "zip": "4348 Lehigh Laural Ln"
  },
  {
    "title": "eee",
    "zip": "44422",
    "lat": "33.70245599999999",
    "lng": "-84.163727"
  },
  {
    "title": "James Gang bombs",
    "zip": "4348 Lehigh Laural Ln"
  },
  {
    "title": "sfdsad",
    "zip": "4348 Lehigh Laural Ln"
  },
  {
    "title": "Biggie Smalls",
    "zip": "30034",
    "lat": "33.835319",
    "lng": "-84.33756089999997"
  },
  {
    "title": "the Event",
    "zip": "30034",
    "lat": "33.73975879999999",
    "lng": "-84.30853990000003"
  },
  {
    "title": "tupac Shakur",
    "zip": "34332",
    "lat": "33.76577489999999",
    "lng": "-84.35358789999998"
  }
]